gps_time,heading,pitch,roll,gyroX,gyroY,gyroZ,accX,accY,accZ,latitude,longitude,east_speed,north_speed,position_type,GNSS_info1,GNSS_info2,vehicle_lat_speed,vehicle_lon_speed
20373610,171.78,-1.03,0.5,0.044070000000000005,0.05047,-0.37592000000000003,-0.008595,-0.018109,0.998539,31.127199172,121.476196289,0.0,0.0,100,6,5,0.0,0.0
20373630,171.78,-1.03,0.5,0.09802000000000001,0.08952,-0.34769000000000005,-0.008765,-0.018378,0.998166,31.127199172,121.476196289,0.0,0.0,100,6,5,0.0,0.0
20373650,171.78,-1.03,0.5,0.08220000000000001,0.11352000000000001,-0.41657000000000005,-0.008799,-0.018026999999999998,0.9979079999999999,31.127199172,121.476196289,0.0,0.0,100,6,5,0.0,0.0
20373670,171.78,-1.03,0.5,0.04211,0.10856,-0.34912000000000004,-0.008723999999999999,-0.018314,0.9981049999999999,31.127199172,121.476196289,0.0,0.0,100,6,5,0.0,0.0
20373690,171.78,-1.03,0.5,0.05623,0.07250000000000001,-0.40469000000000005,-0.008616,-0.018163,0.998396,31.127199172,121.476196289,0.0,0.0,100,6,5,0.0,0.0
20373710,171.78,-1.03,0.5,0.10174000000000001,0.034510000000000006,-0.37785,-0.008662999999999999,-0.018134,0.9980479999999999,31.127199172,121.476196289,0.0,0.0,100,6,5,0.0,0.0
20373730,171.78,-1.03,0.5,0.07681,0.06115,-0.37212,-0.00874,-0.018247,0.9983029999999999,31.127199172,121.476196289,0.0,0.0,100,6,5,0.0,0.0
20373750,171.78,-1.03,0.5,0.04002,-0.00834,-0.35962000000000005,-0.008626,-0.018172,0.9981209999999999,31.127199172,121.476196289,0.0,0.0,100,6,5,0.0,0.0
20373770,171.78,-1.03,0.5,0.11168000000000002,0.056850000000000005,-0.39740000000000003,-0.008596,-0.017953999999999998,0.99791,31.127199172,121.476196289,0.0,0.0,100,6,5,0.0,0.0
20373790,171.78,-1.03,0.5,0.08769,0.08911000000000001,-0.36914,-0.00853,-0.018449999999999998,0.9982789999999999,31.127199172,121.476196289,0.0,0.0,100,6,5,0.0,0.0
20373810,171.78,-1.03,0.5,0.044140000000000006,0.10716,-0.35641,-0.008681,-0.018295,0.9984379999999999,31.127199172,121.476196289,0.0,0.0,100,6,5,0.0,0.0
20373830,171.78,-1.03,0.5,0.051340000000000004,0.15251,-0.30003,-0.008598,-0.018061,0.998412,31.127199172,121.476196289,0.0,0.0,100,6,5,0.0,0.0
20373850,171.78,-1.03,0.5,0.0361,0.053930000000000006,-0.37352,-0.008784,-0.018175999999999998,0.9980859999999999,31.127199172,121.476196289,0.0,0.0,100,6,5,0.0,0.0
20373870,171.78,-1.03,0.5,-0.01026,0.08855,-0.3864,-0.00874,-0.018362,0.99806,31.127199172,121.476196289,0.0,0.0,100,6,5,0.0,0.0
20373890,171.78,-1.04,0.5,0.05301,0.12701,-0.38099000000000005,-0.008917999999999999,-0.018282,0.998208,31.127199172,121.476196289,0.0,0.0,100,6,5,0.0,0.0
20373910,171.78,-1.04,0.5,0.04032,0.056810000000000006,-0.33601000000000003,-0.008874,-0.018133,0.9982209999999999,31.127199172,121.476196289,0.0,0.0,100,6,5,0.0,0.0
20373930,171.78,-1.03,0.5,0.07369,0.06386,-0.40971,-0.008633,-0.017932999999999998,0.9983289999999999,31.127199172,121.476196289,0.0,0.0,100,6,5,0.0,0.0
20373950,171.78,-1.03,0.51,0.051370000000000006,0.04771,-0.37454000000000004,-0.008942,-0.018081,0.998562,31.127199172,121.476196289,0.0,0.0,100,6,5,0.0,0.0
20373970,171.78,-1.03,0.5,0.039920000000000004,0.025400000000000002,-0.36465000000000003,-0.008805,-0.018054,0.998416,31.127199172,121.476196289,0.0,0.0,100,6,5,0.0,0.0
20373990,171.78,-1.03,0.5,0.02527,0.05639,-0.39768000000000003,-0.008605,-0.018366999999999998,0.9981129999999999,31.127199172,121.476196289,0.0,0.0,100,6,5,0.0,0.0
20374010,171.78,-1.03,0.5,0.009420000000000001,0.04578,-0.33744,-0.008735,-0.018305,0.9981909999999999,31.127199172,121.476196289,0.0,0.0,100,6,5,0.0,0.0
20374030,171.78,-1.03,0.5,0.0661,0.03432,-0.31305000000000005,-0.008891999999999999,-0.018187,0.998597,31.127199172,121.476196289,0.0,0.0,100,6,5,0.0,0.0
20374050,171.78,-1.03,0.51,0.06099,0.07875,-0.38001,-0.008869,-0.018168,0.998238,31.127199172,121.476196289,0.0,0.0,100,6,5,0.0,0.0
20374070,171.78,-1.03,0.51,0.09301000000000001,0.10518000000000001,-0.40889000000000003,-0.008901,-0.01822,0.998176,31.127199172,121.476196289,0.0,0.0,100,6,5,0.0,0.0
20374090,171.78,-1.03,0.51,0.05435,0.042820000000000004,-0.34043,-0.00887,-0.018269,0.998139,31.127199172,121.476196289,0.0,0.0,100,6,5,0.0,0.0
20374110,171.78,-1.04,0.51,0.05876000000000001,0.11032000000000002,-0.39517,-0.008806,-0.018334,0.9982709999999999,31.127199172,121.476196289,0.0,0.0,100,6,5,0.0,0.0
20374130,171.78,-1.03,0.51,0.06452000000000001,0.10338000000000001,-0.37965000000000004,-0.008874,-0.018175,0.9986029999999999,31.127199172,121.476196289,0.0,0.0,100,6,5,0.0,0.0
20374150,171.78,-1.03,0.51,0.10426,0.07397000000000001,-0.35838000000000003,-0.009041,-0.018115,0.998093,31.127199172,121.476196289,0.0,0.0,100,6,5,0.0,0.0
20374170,171.78,-1.03,0.51,0.14697000000000002,0.08372,-0.40532,-0.008766,-0.0182,0.9979699999999999,31.127199172,121.476196289,0.0,0.0,100,6,5,0.0,0.0
20374190,171.78,-1.03,0.51,0.09568,0.07004,-0.34730000000000005,-0.008754,-0.018255999999999998,0.998112,31.127199172,121.476196289,0.0,0.0,100,6,5,0.0,0.0
20374210,171.78,-1.03,0.51,0.09071000000000001,0.06176,-0.39755,-0.008699,-0.017984999999999998,0.998018,31.127199172,121.476196289,0.0,0.0,100,6,5,0.0,0.0
20374230,171.78,-1.03,0.51,0.09222000000000001,0.14661000000000002,-0.33636000000000005,-0.008742,-0.018234999999999998,0.9983299999999999,31.127199172,121.476196289,0.0,0.0,100,6,5,0.0,0.0
20374250,171.78,-1.03,0.51,0.056900000000000006,0.09477000000000001,-0.3396,-0.008615,-0.018206,0.998405,31.127199172,121.476196289,0.0,0.0,100,6,5,0.0,0.0
20374270,171.78,-1.03,0.51,0.023530000000000002,0.03821,-0.40376,-0.008787999999999999,-0.018272999999999998,0.998065,31.127199172,121.476196289,0.0,0.0,100,6,5,0.0,0.0
20374290,171.78,-1.03,0.51,0.08524000000000001,0.07932,-0.37476000000000004,-0.008921,-0.018264,0.9981329999999999,31.127199172,121.476196289,0.0,0.0,100,6,5,0.0,0.0
20374310,171.78,-1.03,0.51,0.11426000000000001,0.09473000000000001,-0.40134000000000003,-0.008754,-0.018054,0.998296,31.127199172,121.476196289,0.0,0.0,100,6,5,0.0,0.0
20374330,171.78,-1.03,0.51,0.036570000000000005,0.07388,-0.33941000000000004,-0.008783,-0.018468,0.9980249999999999,31.127199172,121.476196289,0.0,0.0,100,6,5,0.0,0.0
20374350,171.78,-1.03,0.51,0.10242000000000001,0.12345,-0.37154000000000004,-0.008603,-0.018161999999999998,0.998173,31.127199172,121.476196289,0.0,0.0,100,6,5,0.0,0.0
20374370,171.78,-1.03,0.51,0.09926000000000001,0.033150000000000006,-0.38932000000000005,-0.008725,-0.018149,0.998069,31.127199172,121.476196289,0.0,0.0,100,6,5,0.0,0.0
20374390,171.78,-1.03,0.5,0.06361,0.08835000000000001,-0.34849,-0.008721,-0.018157,0.9983219999999999,31.127199172,121.476196289,0.0,0.0,100,6,5,0.0,0.0
20374410,171.78,-1.03,0.51,0.022840000000000003,0.03071,-0.39822,-0.008923,-0.01795,0.998281,31.127199172,121.476196289,0.0,0.0,100,6,5,0.0,0.0
20374430,171.78,-1.03,0.51,0.09450000000000001,0.09875,-0.33389,-0.008789,-0.018217,0.9981279999999999,31.127199172,121.476196289,0.0,0.0,100,6,5,0.0,0.0
20374450,171.78,-1.03,0.51,0.052890000000000006,0.07383,-0.34193,-0.008685,-0.018047,0.99805,31.127199172,121.476196289,0.0,0.0,100,6,5,0.0,0.0
20374470,171.78,-1.03,0.51,0.06678,0.1062,-0.35677000000000003,-0.008661,-0.018222,0.998031,31.127199172,121.476196289,0.0,0.0,100,6,5,0.0,0.0
20374490,171.78,-1.03,0.51,0.031700000000000006,0.09768,-0.37908000000000003,-0.008763,-0.018244,0.997969,31.127199172,121.476196289,0.0,0.0,100,6,5,0.0,0.0
20374510,171.78,-1.03,0.51,0.06237,0.09702000000000001,-0.43197,-0.008679,-0.018257,0.998516,31.127199172,121.476196289,0.0,0.0,100,6,5,0.0,0.0
20374530,171.78,-1.03,0.51,0.08949000000000001,0.07868,-0.38442000000000004,-0.008653,-0.017984,0.9983489999999999,31.127199172,121.476196289,0.0,0.0,100,6,5,0.0,0.0
20374550,171.78,-1.03,0.5,0.07366,0.04691000000000001,-0.39087000000000005,-0.008642,-0.018149,0.997867,31.127199172,121.476196289,0.0,0.0,100,6,5,0.0,0.0
20374570,171.78,-1.03,0.5,0.026570000000000003,0.06608,-0.36526000000000003,-0.008652,-0.018115,0.997871,31.127199172,121.476196289,0.0,0.0,100,6,5,0.0,0.0
20374590,171.78,-1.03,0.5,0.00965,0.06926,-0.39898000000000006,-0.008739,-0.01813,0.998226,31.127199172,121.476196289,0.0,0.0,100,6,5,0.0,0.0
20374610,171.78,-1.03,0.5,0.0543,0.08414,-0.35326,-0.008492,-0.017941,0.9984879999999999,31.127199172,121.476196289,0.0,0.0,100,6,5,0.0,0.0
20374630,171.78,-1.03,0.5,0.06092,0.06205000000000001,-0.37615000000000004,-0.008799999999999999,-0.017991999999999998,0.9981869999999999,31.127199172,121.476196289,0.0,0.0,100,6,5,0.0,0.0
20374650,171.78,-1.03,0.5,0.03647,0.09034,-0.34491000000000005,-0.008773999999999999,-0.018317999999999997,0.998479,31.127199172,121.476196289,0.0,0.0,100,6,5,0.0,0.0
20374670,171.78,-1.03,0.5,0.049190000000000005,0.10781,-0.36183000000000004,-0.008612999999999999,-0.018361,0.998466,31.127199172,121.476196289,0.0,0.0,100,6,5,0.0,0.0
20374690,171.78,-1.03,0.51,0.059190000000000006,0.09503,-0.30896,-0.008638999999999999,-0.018105,0.998084,31.127199172,121.476196289,0.0,0.0,100,6,5,0.0,0.0
20374710,171.78,-1.03,0.51,0.10187,0.06051000000000001,-0.31508,-0.008664999999999999,-0.01799,0.998157,31.127199172,121.476196289,0.0,0.0,100,6,5,0.0,0.0
20374730,171.78,-1.03,0.51,0.06526,0.12990000000000002,-0.41252000000000005,-0.008792,-0.018177,0.9982949999999999,31.127199172,121.476196289,0.0,0.0,100,6,5,0.0,0.0
20374750,171.78,-1.03,0.51,0.06489,0.08534000000000001,-0.37078000000000005,-0.008768999999999999,-0.018342999999999998,0.9981399999999999,31.127199172,121.476196289,0.0,0.0,100,6,5,0.0,0.0
20374770,171.78,-1.03,0.51,0.08019000000000001,0.08106000000000001,-0.34745000000000004,-0.008527999999999999,-0.018252,0.9982829999999999,31.127199172,121.476196289,0.0,0.0,100,6,5,0.0,0.0
20374790,171.78,-1.03,0.5,0.0345,0.07351,-0.34016,-0.00845,-0.018137999999999998,0.998313,31.127199172,121.476196289,0.0,0.0,100,6,5,0.0,0.0
20374810,171.78,-1.03,0.5,0.08383,0.047950000000000007,-0.29600000000000004,-0.008581,-0.017974999999999998,0.998246,31.127199172,121.476196289,0.0,0.0,100,6,5,0.0,0.0
20374830,171.78,-1.03,0.5,0.035660000000000004,0.10814000000000001,-0.31154000000000004,-0.008475,-0.018083,0.998432,31.127199172,121.476196289,0.0,0.0,100,6,5,0.0,0.0
20374850,171.78,-1.03,0.5,0.07232000000000001,0.15643,-0.38934,-0.008669,-0.018075,0.998451,31.127199172,121.476196289,0.0,0.0,100,6,5,0.0,0.0
20374870,171.78,-1.03,0.5,0.08734,0.01795,-0.34588,-0.008757,-0.018254,0.9978739999999999,31.127199172,121.476196289,0.0,0.0,100,6,5,0.0,0.0
20374890,171.78,-1.03,0.5,0.07708000000000001,0.038720000000000004,-0.35783000000000004,-0.008725,-0.018369,0.998315,31.127199172,121.476196289,0.0,0.0,100,6,5,0.0,0.0
20374910,171.78,-1.03,0.5,0.036000000000000004,-0.00478,-0.39603000000000005,-0.008605999999999999,-0.018189999999999998,0.998498,31.127199172,121.476196289,0.0,0.0,100,6,5,0.0,0.0
