gps_time,heading,pitch,roll,gyroX,gyroY,gyroZ,accX,accY,accZ,latitude,longitude,east_speed,north_speed,position_type,GNSS_info1,GNSS_info2,vehicle_lat_speed,vehicle_lon_speed
184205560,233.22,-1.42,1.32,-0.67252,0.8867100000000001,-0.33247000000000004,-0.035642,0.029966,0.9675809999999999,31.331578623000002,121.22396820700001,-2.32,-1.98,50,5,188,2.9749482386644184,3.0436950033741237
184205580,233.23000000000002,-1.44,1.33,-1.1100400000000001,0.45285000000000003,-0.43793000000000004,-0.024239,0.034089,0.954742,31.331578264,121.22396771700001,-2.33,-1.99,50,5,188,2.988827282180867,3.0576571047918355
184205600,233.23000000000002,-1.46,1.35,-1.10562,1.0005000000000002,-0.39916,-0.022507,0.025806,0.914295,31.331577905000003,121.22396722500001,-2.33,-2.0,50,5,188,2.996837731272813,3.0636431473364008
184205620,233.24,-1.47,1.37,-0.6183200000000001,1.3806900000000002,-0.33957000000000004,-0.033305999999999995,0.030223999999999997,0.9217949999999999,31.331577517000003,121.22396672800001,-2.34,-2.0100000000000002,50,5,188,3.0107170217326917,3.0776030507830843
184205640,233.24,-1.47,1.4000000000000001,0.25788,1.2049,-0.30319,-0.025792,0.005209999999999999,0.90208,31.331577115,121.22396622900001,-2.35,-2.0100000000000002,50,5,188,3.016701666098979,3.0856145445145344
184205660,233.25,-1.47,1.42,0.057730000000000004,0.94842,-0.23587000000000002,-0.030192999999999998,0.007851,0.976105,31.331576752000004,121.22396573300001,-2.35,-2.02,50,5,188,3.0245955129769917,3.0915621529767243
184205680,233.25,-1.47,1.44,0.023370000000000002,1.0736,-0.1952,-0.022938,-0.002263,1.027816,31.331576388000002,121.22396523600001,-2.36,-2.02,50,5,188,3.0305787589826982,3.0995746911036344
184205700,233.25,-1.49,1.46,-0.8893800000000001,1.05338,-0.12988000000000002,-0.029658999999999998,-0.002294,1.055707,31.331576024,121.223964738,-2.36,-2.02,50,5,188,3.0305787589826982,3.0995746911036344
184205720,233.26,-1.51,1.47,-0.88497,0.22893000000000002,-0.11084000000000001,-0.033756999999999995,-0.004092999999999999,1.061053,31.331575658000002,121.22396424,-2.36,-2.0300000000000002,50,5,188,3.038473203730267,3.1055204526394187
184205740,233.26,-1.52,1.46,-0.5712400000000001,-0.1582,-0.22327000000000002,-0.047848999999999996,-0.006999999999999999,1.025774,31.331575293,121.22396374,-2.37,-2.0300000000000002,50,5,188,3.0444550511931334,3.113534034917714
184205760,233.27,-1.51,1.46,0.3235,-0.2484,-0.4761,-0.037004999999999996,0.014367999999999999,1.033031,31.331574926000002,121.223963241,-2.37,-2.04,50,5,188,3.052350092717118,3.119477948493314
184205780,233.28,-1.5,1.46,0.52558,-0.06306,-0.54603,-0.034741,0.021601,1.0030409999999998,31.331574558000003,121.22396274,-2.38,-2.04,50,5,188,3.058210508813483,3.1274555894300247
184205800,233.3,-1.49,1.46,0.76087,-0.21771000000000001,-0.69984,-0.04027,0.02264,0.969386,31.331574188,121.22396223800001,-2.38,-2.05,50,5,188,3.0659879205014358,3.1333575845999526
184205820,233.3,-1.48,1.45,0.6230800000000001,-0.38201,-0.5738000000000001,-0.015571,0.02298,0.947247,31.331573783000003,121.22396174100001,-2.39,-2.06,50,5,188,3.079981928413629,3.1473515925121456
184205840,233.31,-1.47,1.44,0.31062,-0.27548,-0.45289,-0.026983999999999998,0.018366999999999998,0.949151,31.331573359000004,121.22396125300001,-2.4,-2.07,50,5,188,3.093855954104682,3.1613062168761843
184205860,233.32,-1.47,1.44,0.19227000000000002,-0.16097,-0.44822000000000006,-0.028763999999999998,0.026202999999999997,0.984015,31.331572985,121.223960746,-2.4,-2.07,50,5,188,3.0937358776393005,3.1612667370291367
184205880,233.33,-1.47,1.44,-0.05654000000000001,-0.10704000000000001,-0.42282000000000003,-0.015073999999999999,0.023472,1.0028409999999999,31.331572611000002,121.223960238,-2.41,-2.08,50,5,188,3.1076086439978043,3.175220097948867
184205900,233.33,-1.47,1.44,-0.12747,0.1899,-0.3052,-0.022508999999999998,0.036698999999999996,1.011744,31.331572236000003,121.22395972800001,-2.42,-2.08,50,5,188,3.1135806965610833,3.183240982450057
184205920,233.34,-1.48,1.45,-0.60975,0.49477000000000004,-0.25749,0.001869,0.025536,1.008361,31.33157186,121.22395921500001,-2.43,-2.09,50,5,188,3.1274512530797693,3.1971945736674257
184205940,233.34,-1.5,1.45,-0.8501000000000001,0.08919,-0.09905000000000001,-0.012641999999999999,0.018711,0.996887,31.331571483,121.223958701,-2.44,-2.09,50,5,188,3.1334219056436607,3.2052165003662485
184205960,233.34,-1.51,1.46,-0.325,0.11510000000000001,-0.15544000000000002,-0.028357999999999998,0.016899,0.988336,31.331571106000002,121.22395818400001,-2.45,-2.09,50,5,188,3.139392558207553,3.213238427065072
184205980,233.35,-1.5,1.46,0.53683,0.21904,-0.09036000000000001,-0.00891,0.017554999999999998,0.9862289999999999,31.331570728000003,121.223957666,-2.46,-2.1,50,5,188,3.153259503066352,3.22719328876712
184206000,233.35,-1.48,1.47,0.8417300000000001,0.46667000000000003,-0.05237000000000001,-0.038553,0.027954999999999997,0.9966969999999999,31.331570349000003,121.223957146,-2.47,-2.1,50,5,188,3.1592287554489804,3.2352162574192147
184206020,233.35,-1.46,1.48,0.92995,0.49752,-0.20917000000000002,-0.021304,0.025317,0.978452,31.331569969,121.22395662500001,-2.48,-2.11,50,5,188,3.1732209764837025,3.249208478453937
184206040,233.35,-1.45,1.49,0.43535,0.48245000000000005,-0.33999,-0.040831,0.020479999999999998,0.980819,31.331569514,121.22395614800001,-2.48,-2.12,50,5,188,3.1812439451357966,3.2551777308365653
184206060,233.36,-1.45,1.51,0.03372,0.75404,-0.43952,-0.038260999999999996,0.016194,0.9635619999999999,31.331569122,121.223955629,-2.49,-2.13,50,5,188,3.195109359750166,3.2691310600420325
184206080,233.36,-1.45,1.53,0.0367,1.01923,-0.32596,-0.029594,0.025122,0.9805539999999999,31.331568737,121.22395510400001,-2.49,-2.13,50,5,188,3.195109359750166,3.2691310600420325
184206100,233.37,-1.45,1.54,0.46467,0.65495,-0.36484000000000005,-0.033652999999999995,0.022316,1.005749,31.331568352,121.223954577,-2.5,-2.14,50,5,188,3.2089739593012814,3.2830835719294162
184206120,233.38,-1.45,1.55,-0.15556,0.32074,-0.34503,-0.025162,0.027703,1.0237049999999999,31.331567965,121.22395404900001,-2.5100000000000002,-2.15,50,5,188,3.222837742514383,3.297035265221278
184206140,233.38,-1.46,1.56,-0.66185,0.28346000000000005,-0.35764,-0.033817,0.008246999999999999,1.032732,31.331567577,121.223953519,-2.5100000000000002,-2.15,50,5,188,3.222837742514383,3.297035265221278
184206160,233.39000000000001,-1.47,1.56,-0.26698,0.06601,-0.24725000000000003,-0.023707,-0.007819,1.031042,31.331567189,121.22395298800001,-2.52,-2.16,50,5,188,3.2367007081147543,3.3109861386402226
184206180,233.39000000000001,-1.47,1.54,-0.20102,-0.7076100000000001,-0.30944000000000005,-0.048594,0.003855,1.044197,31.3315668,121.223952456,-2.52,-2.16,50,5,188,3.2367007081147543,3.3109861386402226
184206200,233.4,-1.47,1.53,-0.0873,-0.9704900000000001,-0.30876000000000003,-0.030402,-0.006588,1.020975,31.33156641,121.223951924,-2.52,-2.16,50,5,188,3.23657243132616,3.3109457674073397
184206220,233.4,-1.47,1.5,0.37784,-0.9278500000000001,-0.36111000000000004,-0.05107,0.023341999999999998,1.021897,31.331565978,121.22395141000001,-2.5300000000000002,-2.17,50,5,188,3.250562854827727,3.3249361909089066
184206240,233.41,-1.45,1.49,0.8321600000000001,-0.6838900000000001,-0.53541,-0.039893,0.018548,1.001966,31.331565521,121.223950911,-2.5300000000000002,-2.18,50,5,188,3.25846333390065,3.330856205511684
184206260,233.42000000000002,-1.43,1.48,1.08009,-0.55833,-0.5647500000000001,-0.028114,0.021162,0.967588,31.331565127,121.223950376,-2.54,-2.19,50,5,188,3.272325240468212,3.3448035714061417
184206280,233.43,-1.41,1.48,1.2886300000000002,-0.14195000000000002,-0.54047,-0.033000999999999996,0.004899,0.9315089999999999,31.331564731,121.22394984,-2.54,-2.2,50,5,188,3.280228280116103,3.3507188170857694
184206300,233.44,-1.3900000000000001,1.49,0.63178,0.40282,-0.52783,-0.015816999999999998,0.013330999999999999,0.986408,31.331564335000003,121.22394930300001,-2.5500000000000003,-2.2,50,5,188,3.286057606936185,3.3587068499018553
184206320,233.45000000000002,-1.3900000000000001,1.5,0.15831,0.54025,-0.54264,-0.026321999999999998,0.02107,1.017725,31.331563938000002,121.22394876400001,-2.56,-2.2,50,5,188,3.291884029843315,3.3666968596663747
184206340,233.46,-1.4000000000000001,1.52,-0.30365000000000003,0.8816900000000001,-0.42090000000000005,0.013174,0.015776,1.003827,31.331563541,121.22394822400001,-2.57,-2.21,50,5,188,3.305741962298274,3.380642684043632
184206360,233.47,-1.4000000000000001,1.53,-0.19115000000000001,0.8380400000000001,-0.19417,-0.007372999999999999,0.014161,0.978232,31.331563143,121.22394768100001,-2.58,-2.2,50,5,188,3.3035281617575327,3.382682807109475
184206380,233.47,-1.41,1.55,-0.4228,0.7171200000000001,-0.07492,0.015389,0.012468,1.004716,31.331562746000003,121.22394713700001,-2.59,-2.2,50,5,188,3.3094805977941633,3.3907182601290513
184206400,233.47,-1.42,1.56,-0.44627000000000006,0.35273000000000004,0.09498000000000001,-0.008953,0.009034,1.017933,31.331562348000002,121.22394659000001,-2.6,-2.2,50,5,188,3.3154330338307942,3.3987537131486283
184206420,233.45000000000002,-1.41,1.56,0.32042000000000004,0.22584,0.23561,-0.017717999999999998,0.004391,1.007772,31.331561889000003,121.22394606900001,-2.6,-2.21,50,5,188,3.3237383668859275,3.404785599194242
184206440,233.45000000000002,-1.41,1.56,0.33488,0.26669000000000004,0.14495000000000002,-0.021786,0.008987,1.002488,31.331561443000002,121.22394553800001,-2.61,-2.21,50,5,188,3.329693607462099,3.4128189739321657
184206460,233.45000000000002,-1.41,1.56,-0.0008100000000000001,-0.07497000000000001,0.15573,-0.063465,0.009968,1.015861,31.331561043,121.22394498800001,-2.61,-2.22,50,5,188,3.3377269822000235,3.418774214508338
184206480,233.45000000000002,-1.41,1.57,0.13338,0.27516,-0.18361000000000002,-0.050595,-0.00499,0.992367,31.331560642000003,121.22394443700001,-2.61,-2.23,50,5,188,3.345760356937947,3.4247294550845098
184206500,233.46,-1.3900000000000001,1.58,0.7333200000000001,0.5921200000000001,-0.29461000000000004,-0.055394,0.018911999999999998,1.002708,31.33156024,121.223943886,-2.61,-2.24,50,5,188,3.3536605578899725,3.4306418552393683
184206520,233.47,-1.37,1.6,0.9167000000000001,0.6589100000000001,-0.48822000000000004,-0.057583999999999996,0.014712,0.9772909999999999,31.331559836,121.22394333400001,-2.62,-2.24,50,5,188,3.3594797179823614,3.4386343633343035
184206540,233.48000000000002,-1.35,1.61,1.0897400000000002,0.53534,-0.57499,-0.037549,0.020496999999999998,0.9825889999999999,31.331559431000002,121.22394278200001,-2.62,-2.25,50,5,188,3.367381429135321,3.4445433861761816
184206560,233.49,-1.32,1.61,1.51573,-0.015960000000000002,-0.46657000000000004,-0.034419,0.015482999999999998,0.9898309999999999,31.331559025,121.22394222800001,-2.63,-2.2600000000000002,50,5,188,3.381234745786337,3.458487029148574
184206580,233.5,-1.32,1.61,0.13516,-0.16496000000000002,-0.55972,-0.036437,0.009080999999999999,1.017995,31.331558617000002,121.22394167300001,-2.63,-2.2600000000000002,50,5,188,3.381100434150939,3.4584430414813134
184206600,233.51,-1.32,1.6,-0.08935000000000001,-0.09635,-0.55935,-0.021473,0.00085,1.05375,31.331558209,121.22394111700001,-2.64,-2.27,50,5,188,3.3949524509487046,3.472385379891225
184206620,233.51,-1.33,1.59,-0.22224000000000002,-0.5401600000000001,-0.32847000000000004,-0.035958,-0.014787,1.026845,31.331557758000002,121.223940592,-2.64,-2.27,50,5,188,3.3949524509487046,3.472385379891225
184206640,233.51,-1.33,1.57,-0.025820000000000003,-1.1427200000000002,-0.24065000000000003,-0.038907,0.009495,1.0228,31.331557292000003,121.22394009000001,-2.64,-2.2800000000000002,50,5,188,3.402992057594047,3.478332204673256
184206660,233.52,-1.33,1.54,0.03329,-1.36782,-0.34439000000000003,-0.027313999999999998,0.007989999999999999,0.959722,31.331556881,121.223939533,-2.64,-2.2800000000000002,50,5,188,3.4028582122962296,3.4782862375679415
184206680,233.53,-1.31,1.52,1.05787,-1.1024100000000001,-0.29586,-0.035789999999999995,0.018741,0.9683189999999999,31.331556470000002,121.22393897500001,-2.65,-2.29,50,5,188,3.41670996339803,3.492225864564575
184206700,233.54,-1.27,1.51,1.6238400000000002,-0.69005,-0.45160000000000006,-0.025852999999999998,0.00943,0.986319,31.331556057,121.223938415,-2.65,-2.29,50,5,188,3.416575544465884,3.4921793192269157
184206720,233.55,-1.25,1.5,1.19418,-0.32881000000000005,-0.48905000000000004,-0.039388,-0.0031479999999999998,0.983358,31.331555644,121.223937855,-2.66,-2.29,50,5,188,3.422382232087916,3.500176423864093
184206740,233.56,-1.24,1.5,0.6298400000000001,0.16973000000000002,-0.47721,-0.021162,0.003034,1.000391,31.331555230000003,121.22393729400001,-2.66,-2.3000000000000003,50,5,188,3.4302909941864277,3.5060705092246893
184206760,233.57,-1.23,1.52,0.60567,0.93803,-0.5710000000000001,-0.020388999999999997,0.004536999999999999,0.996254,31.331554815,121.22393673200001,-2.67,-2.3000000000000003,50,5,188,3.436094297906066,3.5140691068915952
184206780,233.58,-1.22,1.55,0.26681000000000005,1.15318,-0.5660200000000001,-0.001604,0.028591,1.0192569999999999,31.331554401,121.22393616900001,-2.68,-2.3000000000000003,50,5,188,3.4418946884319004,3.5220696704073315
184206800,233.59,-1.22,1.58,0.19905,1.5758100000000002,-0.37518,0.007228999999999999,0.026754999999999998,1.014443,31.331553986000003,121.223935603,-2.69,-2.3000000000000003,50,5,188,3.4476921652254977,3.530072199037975
184206820,233.58,-1.22,1.6,-0.15913000000000002,1.3217100000000002,-0.07697000000000001,0.019514999999999998,0.011922,1.0105899999999999,31.331553521000004,121.223935068,-2.7,-2.3000000000000003,50,5,188,3.453768684659554,3.538163402528429
184206840,233.58,-1.22,1.61,-0.053790000000000004,0.4267,0.10964000000000002,-0.014707,0.021391,1.007314,31.331553037000003,121.22393454700001,-2.7,-2.31,50,5,188,3.461815550720103,3.5441004006422565
184206860,233.57,-1.22,1.62,0.23708,0.31326000000000004,0.08433,-0.016731,-0.011656,0.948692,31.331552621000004,121.22393397600001,-2.71,-2.31,50,5,188,3.4678937375082772,3.5521908283034445
184206880,233.57,-1.2,1.6300000000000001,1.11345,0.41642,0.028810000000000002,-0.027052,0.01183,0.9628279999999999,31.331552205,121.22393340400001,-2.71,-2.31,50,5,188,3.4678937375082772,3.5521908283034445
184206900,233.58,-1.17,1.6400000000000001,1.51373,0.38691000000000003,-0.10591,-0.0513,0.009479,0.975414,31.331551789000002,121.22393283100001,-2.72,-2.31,50,5,188,3.4736895469477576,3.560194132763354
184206920,233.58,-1.1500000000000001,1.6400000000000001,0.7472300000000001,0.0352,-0.21446,-0.045974999999999995,0.015026,1.023444,31.331551371000003,121.223932257,-2.72,-2.32,50,5,188,3.481736413008306,3.5661311308771806
184206940,233.59,-1.1300000000000001,1.6400000000000001,1.1265900000000002,0.27085000000000004,-0.53598,-0.050773,0.005396,1.002252,31.331550952,121.223931683,-2.72,-2.33,50,5,188,3.489642652385398,3.572022686197876
184206960,233.6,-1.11,1.6600000000000001,0.89675,0.7751,-0.5768000000000001,-0.049675,-0.00073,0.994223,31.331550532,121.223931108,-2.73,-2.33,50,5,188,3.495436108267385,3.5800260725682698
184206980,233.62,-1.1,1.67,0.82618,0.45016000000000006,-0.7898000000000001,-0.050173999999999996,-0.001049,1.023671,31.331550111000002,121.223930533,-2.72,-2.34,50,5,188,3.497271143454447,3.577817083859019
184207000,233.64000000000001,-1.1,1.67,-0.28511000000000003,-0.11365000000000001,-0.8204800000000001,-0.041077999999999996,-0.006287,1.026711,31.331549689000003,121.22392995800001,-2.73,-2.34,50,5,188,3.5029195716037167,3.585775487168241
184207020,233.66,-1.11,1.67,-0.00578,0.21159000000000003,-0.99016,-0.037949,0.0008939999999999999,1.075767,31.331549245,121.223929397,-2.73,-2.35,50,5,188,3.5106913418648285,3.591608201441427
184207040,233.66,-1.1,1.67,0.30864,-0.11775000000000001,-0.98167,-0.013800999999999999,0.000939,1.045131,31.331548732,121.22392889500001,-2.73,-2.35,50,5,188,3.5106913418648285,3.591608201441427
184207060,233.68,-1.1,1.6400000000000001,-0.08148000000000001,-1.12321,-0.9793900000000001,-0.044039999999999996,0.008838,1.001944,31.331548299,121.223928329,-2.73,-2.36,50,5,188,3.5184668213174257,3.597434854534108
184207080,233.70000000000002,-1.09,1.61,0.5688000000000001,-1.59972,-0.9987600000000001,0.001077,0.009796,0.9449029999999999,31.331547874,121.22392775200001,-2.74,-2.36,50,5,188,3.524106856016359,3.6053945953270916
184207100,233.71,-1.07,1.58,1.33407,-1.6143600000000002,-0.8372900000000001,-0.029557,0.010853,0.9424539999999999,31.331547449000002,121.22392717400001,-2.74,-2.36,50,5,188,3.523965240014184,3.605345693075095
184207120,233.74,-1.03,1.55,1.9617300000000002,-1.47917,-1.0163200000000001,-0.034672,0.024804999999999997,0.981885,31.331547023000002,121.223926594,-2.75,-2.37,50,5,188,3.5375176657429623,3.619176245169172
184207140,233.76,-0.99,1.53,1.7695800000000002,-1.10772,-1.0395100000000002,-0.019978,0.005758999999999999,0.9979399999999999,31.331546597000003,121.22392601400001,-2.7600000000000002,-2.37,50,5,188,3.54314440561222,3.627142179250332
184207160,233.78,-0.97,1.52,0.9365000000000001,-0.6037600000000001,-0.9621200000000001,-0.024967999999999997,-0.0017009999999999998,1.02534,31.331546170000003,121.223925432,-2.7600000000000002,-2.37,50,5,188,3.5428562098551533,3.6270442574853945
184207180,233.79,-0.97,1.52,0.037610000000000005,0.09477000000000001,-0.8885900000000001,-0.013045999999999999,0.0039239999999999995,1.046973,31.331545743000003,121.22392484900001,-2.7600000000000002,-2.37,50,5,188,3.542711950092068,3.626995130873051
184207200,233.81,-0.98,1.52,-0.22424000000000002,-0.022660000000000003,-0.9143800000000001,-0.005971,-0.013054999999999999,1.031375,31.331545316000003,121.22392426600001,-2.77,-2.37,50,5,188,3.5483277549935766,3.6349671799959666
184207220,233.81,-0.97,1.52,0.31421000000000004,0.30321000000000004,-0.76187,0.005855,-0.007833,1.0537729999999998,31.331544802000003,121.223923752,-2.77,-2.37,50,5,188,3.5483277549935766,3.6349671799959666
184207240,233.82,-0.97,1.53,0.21755000000000002,0.58503,-0.6730600000000001,0.0009419999999999999,0.004775,1.046718,31.331544301,121.22392324200001,-2.77,-2.37,50,5,188,3.5481817628109047,3.634918752366947
184207260,233.83,-0.99,1.54,-0.79617,0.5271,-0.6795500000000001,-0.0027619999999999997,0.00957,1.002336,31.331543874,121.22392265600001,-2.7800000000000002,-2.37,50,5,188,3.5539374931769245,3.6429429084311473
184207280,233.85,-0.99,1.55,-0.44304000000000004,0.40136000000000005,-0.69352,-0.018425999999999998,-0.001723,0.9563419999999999,31.331543447,121.22392206900001,-2.79,-2.37,50,5,188,3.5595411625199995,3.650922313239758
184207300,233.86,-1.0,1.56,-0.45494,0.47882,-0.7660100000000001,-0.01405,-0.012230999999999999,0.9048039999999999,31.331543021,121.223921481,-2.79,-2.37,50,5,188,3.5593919192282844,3.650875501613584
184207320,233.87,-1.01,1.57,-0.07893,0.40857000000000004,-0.7119800000000001,-0.03303,0.013923,0.9098729999999999,31.331542594000002,121.22392089300001,-2.79,-2.37,50,5,188,3.5592425675112915,3.650828578775383
184207340,233.89000000000001,-1.01,1.57,-0.21054,0.02825,-0.8999800000000001,-0.037295999999999996,0.019889999999999998,0.939255,31.331542166000002,121.22392030300001,-2.8000000000000003,-2.38,50,5,188,3.572915782886123,3.6647066435350695
184207360,233.91,-1.0,1.58,0.85362,0.43423000000000006,-0.9237000000000001,-0.036886999999999996,0.031056999999999998,0.9981909999999999,31.331541738000002,121.223919713,-2.8000000000000003,-2.38,50,5,188,3.57261555681455,3.664611255663913
184207380,233.93,-0.97,1.59,1.5038600000000002,0.6719900000000001,-1.1002,-0.045527,-0.006384,1.0321719999999999,31.331541308000002,121.22391912200001,-2.81,-2.39,50,5,188,3.5862856103277156,3.678486136168098
184207400,233.96,-0.9400000000000001,1.61,1.2603300000000002,0.534,-1.15623,-0.036802,-0.003251,1.049347,31.331540877000002,121.22391853,-2.81,-2.39,50,5,188,3.585832650775707,3.6783403960304057
184207420,233.97,-0.9500000000000001,1.61,-0.18671000000000001,0.45235000000000003,-1.34328,-0.045248,-0.039885,1.042294,31.331540362000002,121.22391799500001,-2.8000000000000003,-2.39,50,5,188,3.579799358070733,3.6702045006866975
184207440,234.0,-0.96,1.62,-0.63793,0.5791900000000001,-1.4718000000000002,-0.014136999999999999,-0.018434,1.1026209999999999,31.331539871,121.22391744800001,-2.8000000000000003,-2.4,50,5,188,3.587439492918799,3.675932189751789
184207460,234.02,-0.99,1.62,-1.48516,-0.010220000000000002,-1.35616,-0.037278,-0.020139999999999998,1.0551089999999999,31.33153944,121.223916857,-2.8000000000000003,-2.39,50,5,188,3.5790487544042344,3.6699536692731933
184207480,234.05,-1.03,1.61,-1.8333400000000002,-0.8416100000000001,-1.5759800000000002,-0.035219,0.016184999999999998,1.012877,31.331539008000004,121.223916267,-2.8000000000000003,-2.4,50,5,188,3.586692380135596,3.675672619175254
184207500,234.08,-1.05,1.58,-0.9630000000000001,-1.19249,-1.4658200000000001,0.005272,0.013649999999999999,0.917387,31.331538575000003,121.223915675,-2.81,-2.4,50,5,188,3.592109352135286,3.6836139022933274
184207520,234.11,-1.05,1.56,0.12141,-1.24478,-1.5914700000000002,-0.060064,0.020270999999999997,0.9102699999999999,31.331538143000003,121.223915082,-2.81,-2.4,50,5,188,3.5916545490572527,3.6834588792711944
184207540,234.15,-1.02,1.54,1.6584500000000002,-1.01396,-1.9211300000000002,-0.010851,0.023093,0.939002,31.331537709000003,121.223914488,-2.82,-2.41,50,5,188,3.60500879603427,3.6972127938239314
184207560,234.19,-0.99,1.53,1.19358,-0.43214,-1.84552,-0.026527,-0.018442999999999998,0.9940469999999999,31.331537274000002,121.223913893,-2.82,-2.41,50,5,188,3.6043975365912058,3.6970011570174792
184207580,234.23000000000002,-0.99,1.53,0.48888000000000004,0.22718000000000002,-1.9098800000000002,-0.022175,-1.6e-05,1.062369,31.331536839,121.22391329700001,-2.82,-2.41,50,5,188,3.603784520408569,3.696787718337574
184207600,234.26,-1.01,1.54,-1.2483000000000002,0.35849000000000003,-1.7277200000000001,0.004627,-0.0063869999999999994,1.0626229999999999,31.331536405,121.223912701,-2.83,-2.41,50,5,188,3.609164685694532,3.7047432163148057
184207620,234.27,-1.05,1.55,-1.79672,0.7538,-1.6368900000000002,-0.005128,-0.01158,1.075532,31.331535871000003,121.22391216800001,-2.83,-2.41,50,5,188,3.6090094111580004,3.704690256629478
184207640,234.3,-1.08,1.57,-1.59634,1.0784900000000002,-1.54479,0.020197,-0.004457,1.004656,31.331535352000003,121.22391162500001,-2.84,-2.41,50,5,188,3.614378340060626,3.7126515357409726
184207660,234.33,-1.12,1.6,-1.8592100000000003,1.2422000000000002,-1.44517,0.0018789999999999998,0.022569,0.9843689999999999,31.331534918000003,121.22391102600001,-2.85,-2.41,50,5,188,3.6197377739425143,3.7206179078369894
184207680,234.36,-1.16,1.61,-1.8093700000000001,0.50171,-1.43365,-0.0061649999999999995,0.0037059999999999997,0.946975,31.331534484000002,121.22391042400001,-2.85,-2.41,50,5,188,3.6192608033391984,3.7204624246355857
184207700,234.38,-1.18,1.62,-0.9821000000000001,0.5524300000000001,-1.4064,-0.00839,0.016395,0.9312889999999999,31.331534050000002,121.22390982200001,-2.86,-2.41,50,5,188,3.6247663392879264,3.7284871776291686
184207720,234.42000000000002,-1.18,1.6400000000000001,-0.044840000000000005,1.0379900000000002,-1.5836400000000002,-0.016156,-0.004019,0.9098189999999999,31.331533616,121.22390921700001,-2.87,-2.41,50,5,188,3.6299406677207657,3.7364144765331746
184207740,234.45000000000002,-1.18,1.6600000000000001,0.25516,1.02611,-1.6376100000000002,-0.035539999999999995,0.011078,0.9307249999999999,31.331533182,121.223908612,-2.87,-2.41,50,5,188,3.6294522022948104,3.7362620242780507
184207760,234.48000000000002,-1.18,1.68,0.07368000000000001,0.9372100000000001,-1.7283000000000002,-0.015664,0.013614999999999999,0.977582,31.331532747,121.223908006,-2.88,-2.41,50,5,188,3.6347726128364735,3.744247675357408
184207780,234.51,-1.18,1.69,-0.055150000000000005,0.768,-1.5735500000000002,-0.043378,-0.017053,1.0628149999999998,31.331532312,121.22390739900001,-2.88,-2.42,50,5,188,3.6424200636188284,3.749901824004064
184207800,234.55,-1.19,1.7,-0.55613,0.47663000000000005,-1.6378000000000001,-0.033172,-0.003581,1.124615,31.331531876000003,121.22390679200001,-2.88,-2.42,50,5,188,3.6417629411203576,3.7496925950041096
184207820,234.56,-1.24,1.71,-2.3995,0.63478,-1.7910100000000002,-0.052028,-0.026931,1.0788879999999998,31.331531344000002,121.22390624100001,-2.88,-2.42,50,5,188,3.641598383147114,3.7496400021947087
184207840,234.6,-1.29,1.71,-2.29597,0.012780000000000001,-2.05589,-0.051273,-0.021828999999999998,1.077196,31.331530837000003,121.223905676,-2.87,-2.43,50,5,188,3.643297508243876,3.747070022533661
184207860,234.64000000000001,-1.33,1.71,-2.19519,-0.15323,-2.0968600000000004,-0.016708,-0.019072,1.042317,31.331530399000002,121.22390506900001,-2.88,-2.43,50,5,188,3.6484332464395006,3.755002267561104
184207880,234.68,-1.3800000000000001,1.69,-2.0204500000000003,-0.5740700000000001,-2.1147,-0.055111999999999994,0.0061519999999999995,0.9961639999999999,31.331529961,121.22390446200001,-2.88,-2.44,50,5,188,3.65593375300965,3.760562829238119
184207900,234.72,-1.3900000000000001,1.68,-0.69628,-0.9662700000000001,-2.1309500000000003,0.012811999999999999,0.01592,0.9345239999999999,31.331529521,121.223903855,-2.89,-2.44,50,5,188,3.661052884640282,3.7684978309229944
184207920,234.76,-1.3800000000000001,1.6500000000000001,0.40353000000000006,-1.29173,-1.95466,-0.034675,0.026615,0.907443,31.331529082000003,121.223903245,-2.89,-2.44,50,5,188,3.660388807168868,3.768271637587815
184207940,234.8,-1.36,1.62,1.26364,-1.33338,-2.0084600000000004,-0.011862,0.010973,0.8987449999999999,31.331528642000002,121.22390263400001,-2.9,-2.44,50,5,188,3.6654872688301143,3.7762150566261683
184207960,234.84,-1.34,1.6,1.26373,-1.01269,-1.8949900000000002,-0.00778,0.006699999999999999,0.919878,31.331528201,121.223902021,-2.91,-2.44,50,5,188,3.670572534483168,3.784164683695989
184207980,234.88,-1.33,1.58,0.29281,-0.9403300000000001,-1.9809200000000002,-0.035346999999999996,-0.010099,0.972352,31.331527761,121.22390140700001,-2.91,-2.45,50,5,188,3.678071177510934,3.7896939254778923
184208000,234.92000000000002,-1.36,1.57,-1.2437,-0.7756000000000001,-1.9483100000000002,-0.000699,-0.002685,1.064061,31.331527320000003,121.22390079300001,-2.92,-2.45,50,5,188,3.6831397529319716,3.797646207021896
184208020,234.95000000000002,-1.41,1.56,-2.5555000000000003,-0.06353,-1.8272700000000002,-0.03331,-0.038987,1.106711,31.331526852000003,121.22390019800001,-2.92,-2.45,50,5,188,3.682625325395075,3.7974745863565564
184208040,234.95000000000002,-1.47,1.56,-2.7318800000000003,0.16961,-1.8203500000000001,0.012811999999999999,-0.024097,1.073934,31.331526264,121.223899692,-2.92,-2.45,50,5,188,3.682625325395075,3.7974745863565564
184208060,234.99,-1.51,1.56,-2.33009,0.19911,-1.7071900000000002,-0.007272,-0.01645,0.99152,31.331525801,121.22389909300001,-2.92,-2.44,50,5,188,3.6737473322900422,3.791506945357138
184208080,235.02,-1.56,1.58,-2.1443000000000003,0.5542400000000001,-1.9168100000000001,-0.013738,0.0011979999999999998,0.9382849999999999,31.33152536,121.223898477,-2.92,-2.45,50,5,188,3.6814210684486284,3.7970700895001923
184208100,235.06,-1.58,1.59,-1.0670000000000002,0.7845700000000001,-1.9871500000000002,-0.008052,-0.008433,0.8993479999999999,31.331524920000003,121.223897859,-2.93,-2.44,50,5,188,3.678260115023054,3.799306743111269
184208120,235.1,-1.58,1.6,0.26491000000000003,0.6924300000000001,-1.9524100000000002,-0.017776,0.007597,0.89727,31.331524479000002,121.22389724000001,-2.94,-2.45,50,5,188,3.6914809638205597,3.8130039050104045
184208140,235.15,-1.57,1.62,0.44903000000000004,0.80334,-2.2131000000000003,-0.023098999999999998,0.009427,0.9243119999999999,31.331524038,121.22389662100001,-2.94,-2.45,50,5,188,3.690598612870877,3.812716862120051
184208160,235.19,-1.56,1.6400000000000001,0.27093,1.1755200000000001,-2.0893200000000003,-0.0012389999999999999,-0.00643,0.9709859999999999,31.331523596,121.223895999,-2.95,-2.45,50,5,188,3.6955992772474513,3.820695633124571
184208180,235.23000000000002,-1.56,1.6600000000000001,0.23907000000000003,0.9929000000000001,-1.9546900000000003,-0.026736,-0.033527999999999995,1.033251,31.331523155000003,121.223895377,-2.95,-2.45,50,5,188,3.69488384105234,3.8204660334186102
184208200,235.27,-1.56,1.68,-0.057510000000000006,0.81671,-1.9406200000000002,-0.022489,-0.018761,1.102725,31.331522714000002,121.223894755,-2.95,-2.45,50,5,188,3.694166604015731,3.8202345716639163
184208220,235.28,-1.61,1.69,-1.9461000000000002,0.68461,-1.7334800000000001,-0.021027,-0.039538,1.092631,31.331522170000003,121.223894181,-2.95,-2.45,50,5,188,3.6939870134160415,3.8201764152933286
184208240,235.31,-1.6400000000000001,1.69,-1.8940200000000003,0.22441000000000003,-1.7032300000000002,-0.035616,-0.005229,1.065088,31.331521661000004,121.22389358900001,-2.95,-2.45,50,5,188,3.6934475664871957,3.820001247973301
184208260,235.35,-1.68,1.68,-1.66189,-0.36600000000000005,-1.6803100000000002,-0.012766999999999999,-0.00739,0.999358,31.331521219000003,121.22389296600001,-2.96,-2.45,50,5,188,3.6984123473245285,3.8279924676406925
184208280,235.38,-1.69,1.67,-0.57694,-0.8471200000000001,-1.7295,-0.054244999999999995,0.005948,0.934272,31.331520776,121.22389234200001,-2.96,-2.46,50,5,188,3.7060956108609373,3.8334991430017613
184208300,235.42000000000002,-1.67,1.6500000000000001,1.0166600000000001,-0.7220700000000001,-1.92358,-0.0046879999999999995,0.015306,0.8620939999999999,31.331520333,121.223891717,-2.97,-2.46,50,5,188,3.711045405327231,3.8414922626301764
184208320,235.46,-1.6400000000000001,1.6400000000000001,1.9275200000000001,-0.73579,-1.9989800000000002,-0.052119,0.016461,0.9143779999999999,31.331519889000003,121.22389109000001,-2.98,-2.47,50,5,188,3.7242192007739505,3.855161249017986
184208340,235.51,-1.6,1.6300000000000001,1.9917900000000002,-0.47330000000000005,-2.1871500000000004,-0.018144999999999998,-0.002232,0.9952,31.331519443,121.22389046200001,-2.98,-2.47,50,5,188,3.72329775614856,3.8548587032944175
184208360,235.55,-1.57,1.6300000000000001,1.36063,0.09921,-2.10177,-0.013776,-0.020086,1.0323419999999999,31.331518997000003,121.223889833,-2.98,-2.47,50,5,188,3.7225585588881818,3.8546145530417615
184208380,235.59,-1.56,1.6300000000000001,0.5609500000000001,-0.03934,-1.9544400000000002,-0.041857,-0.046153,1.0357619999999998,31.331518552000002,121.223889204,-2.98,-2.47,50,5,188,3.721817547297984,3.854368524096798
184208400,235.63,-1.58,1.6400000000000001,-0.88204,0.42308,-2.0932600000000003,0.007312,-0.013037,1.073469,31.331518106,121.223888575,-2.99,-2.47,50,5,188,3.726720070714955,3.8623747085913527
184208420,235.64000000000001,-1.62,1.6500000000000001,-1.7182600000000001,0.7938000000000001,-1.85478,-0.005839,-0.016283,1.055031,31.331517587,121.22388799100001,-2.99,-2.47,50,5,188,3.7265326402382444,3.862313423372764
184208440,235.68,-1.6400000000000001,1.6600000000000001,-1.2812000000000001,0.7363400000000001,-1.76082,0.012464,-0.0023929999999999997,1.006603,31.331517044,121.223887434,-2.99,-2.47,50,5,188,3.7257817832217985,3.8620671059891856
184208460,235.71,-1.6600000000000001,1.6600000000000001,-0.9700700000000001,0.21254,-1.61101,-0.005637,0.001687,0.965212,31.3315166,121.22388680200001,-3.0,-2.47,50,5,188,3.730851267344564,3.8701430990270174
184208480,235.74,-1.67,1.6600000000000001,-0.43471000000000004,-0.31673,-1.6741400000000002,-0.010171999999999999,0.009611999999999999,0.898231,31.331516155000003,121.223886168,-3.0100000000000002,-2.47,50,5,188,3.735911076722754,3.878223930763931
184208500,235.78,-1.6500000000000001,1.6500000000000001,1.04318,-0.29693,-1.5731600000000001,-0.016374,-0.002766,0.8913329999999999,31.33151571,121.22388553200001,-3.02,-2.47,50,5,188,3.7407678583930686,3.8862496072183568
184208520,235.81,-1.62,1.6500000000000001,1.8004900000000001,0.02261,-1.75076,-0.03559,-0.0034219999999999997,0.952565,31.331515264000004,121.223884896,-3.02,-2.47,50,5,188,3.7401871292501476,3.886068935228413
184208540,235.85,-1.59,1.6500000000000001,1.7237900000000002,-0.25441,-1.81743,-0.014228,-0.0070669999999999995,0.991138,31.331514818000002,121.223884259,-3.02,-2.47,50,5,188,3.7394112286972367,3.8858263819804537
184208560,235.88,-1.57,1.6400000000000001,0.94552,-0.40074000000000004,-1.7334,-0.051387999999999996,-0.01791,1.085278,31.331514372,121.22388362000001,-3.0300000000000002,-2.48,50,5,188,3.7527160331399663,3.899531150085478
184208580,235.92000000000002,-1.56,1.6300000000000001,0.52897,-0.32953000000000005,-1.8382100000000001,-0.042015,-0.017474999999999997,1.1074389999999998,31.331513925000003,121.223882982,-3.0300000000000002,-2.48,50,5,188,3.7519350764313364,3.8992834156295393
184208600,235.96,-1.58,1.6300000000000001,-0.94564,-0.30931000000000003,-1.9723400000000002,-0.032286999999999996,-0.032742,1.0703259999999999,31.331513478,121.223882344,-3.0300000000000002,-2.48,50,5,188,3.75115229107513,3.8990337807102335
184208620,235.98000000000002,-1.59,1.61,-0.25592000000000004,-0.64588,-2.0473700000000004,-0.06014,-0.007896,1.009512,31.33151292,121.22388176300001,-3.02,-2.49,50,5,188,3.753453813461402,3.896214649926777
184208640,236.02,-1.6,1.59,-0.43658,-0.70172,-2.2310600000000003,-0.012154,-0.011786999999999999,1.009528,31.3315124,121.223881176,-3.0300000000000002,-2.5,50,5,188,3.766559339505224,3.909833834842931
184208660,236.06,-1.59,1.57,0.37292000000000003,-0.79695,-1.9868800000000002,-0.022015999999999997,0.007065,0.963905,31.331511950000003,121.223880538,-3.0300000000000002,-2.5,50,5,188,3.765779783923711,3.9095678683035024
184208680,236.1,-1.57,1.54,0.97235,-1.54692,-2.0023400000000002,-0.01617,-0.001261,0.8800359999999999,31.3315115,121.223879898,-3.04,-2.5,50,5,188,3.770575844036677,3.9176001191391423
184208700,236.15,-1.53,1.51,2.15574,-1.51876,-2.08137,-0.015319999999999999,0.011609999999999999,0.9228609999999999,31.331511050000003,121.22387925700001,-3.04,-2.5,50,5,188,3.769589279524822,3.917267463826721
184208720,236.19,-1.49,1.5,1.9276100000000003,-0.8508800000000001,-2.0476300000000003,-0.015813999999999998,-0.018965,0.9674649999999999,31.331510599,121.22387861400001,-3.0500000000000003,-2.5,50,5,188,3.7743623673824924,3.925308065329622
184208740,236.23000000000002,-1.46,1.5,1.8681100000000002,0.18308000000000002,-2.07506,0.003434,-0.015338,1.0139719999999999,31.331510148000003,121.22387797100001,-3.0500000000000003,-2.5,50,5,188,3.77356340991842,3.9250417667509043
184208760,236.27,-1.43,1.5,1.48787,0.16062,-2.00142,-0.014820999999999999,-0.011991,1.037437,31.331509698,121.22387732700001,-3.06,-2.5,50,5,188,3.7783154128806933,3.9330901900768955
184208780,236.31,-1.44,1.52,-0.35737,0.6601400000000001,-1.9678900000000001,0.020739,-0.019635,1.0756109999999999,31.331509248000003,121.22387668200001,-3.06,-2.49,50,5,188,3.7691864604890006,3.9272769479958476
184208800,236.34,-1.46,1.54,-0.8887400000000001,1.3512400000000002,-1.6360500000000002,0.007514,-0.016635999999999998,1.0510169999999999,31.331508799,121.22387603600001,-3.0700000000000003,-2.49,50,5,188,3.774118651584903,3.935403772745205
184208820,236.35,-1.47,1.56,-0.54527,1.2511700000000001,-1.60281,0.007345,-0.015597999999999999,0.9812839999999999,31.331508239,121.223875453,-3.0700000000000003,-2.49,50,5,188,3.7739134879573824,3.9353389714069253
184208840,236.39000000000001,-1.47,1.56,-0.017060000000000002,0.10913,-1.6329500000000001,-0.016717,0.002959,0.981018,31.331507723,121.22387486100001,-3.0700000000000003,-2.49,50,5,188,3.773091683910062,3.9350785673008004
184208860,236.42000000000002,-1.46,1.56,0.71111,0.11607,-1.7730800000000002,-0.014820999999999999,-0.015155,0.924527,31.331507274000003,121.22387421200001,-3.08,-2.49,50,5,188,3.7780051317474914,3.9432131491866618
184208880,236.46,-1.42,1.57,1.9563800000000002,0.4348,-1.8942700000000001,-0.027677,-0.010981,0.966366,31.331506826000002,121.22387356300001,-3.08,-2.49,50,5,188,3.777174292202372,3.9429532481640392
184208900,236.5,-1.37,1.58,2.20197,0.49491,-1.8534800000000002,-0.038995999999999996,-0.018252,1.0298159999999998,31.331506377,121.22387291300001,-3.08,-2.49,50,5,188,3.776341611708389,3.942691425393903
184208920,236.54,-1.36,1.57,0.7628900000000001,-0.43556000000000006,-1.85467,-0.021033,-0.032554,1.030006,31.331505928000002,121.223872263,-3.08,-2.49,50,5,188,3.7755070906713786,3.9424276810038625
184208940,236.57,-1.36,1.56,0.023350000000000003,-0.48303,-1.54916,-0.038266,-0.021088,1.081627,31.331505479,121.22387161300001,-3.08,-2.49,50,5,188,3.7748799922819036,3.9422286117255636
184208960,236.6,-1.3900000000000001,1.57,-1.32328,0.0673,-1.7797500000000002,-0.06418599999999999,-0.051321,1.062177,31.331505030000002,121.22387096300001,-3.08,-2.49,50,5,188,3.774251858987669,3.9420284616629315
184208980,236.64000000000001,-1.42,1.56,-1.6471000000000002,-0.13385000000000002,-1.9506000000000001,-0.025186,-0.0018319999999999999,1.067572,31.33150458,121.22387031500001,-3.08,-2.5,50,5,188,3.7817650580529243,3.947258891509815
184209000,236.68,-1.44,1.55,-0.94869,-0.5317000000000001,-2.0916200000000003,-0.044697999999999995,-0.007515999999999999,0.9905809999999999,31.331504130000003,121.22386966500001,-3.08,-2.5,50,5,188,3.7809279352991982,3.9469825901098163
184209020,236.72,-1.45,1.54,-0.23089,-0.52605,-2.19177,-0.006372999999999999,0.0013939999999999998,0.967934,31.331503647,121.22386903700001,-3.08,-2.5,50,5,188,3.780088969767129,3.9467043649984523
184209040,236.73000000000002,-1.43,1.52,0.84621,-0.8366500000000001,-1.8988300000000002,-0.005503,0.014478,0.9055249999999999,31.331503057000003,121.22386847800001,-3.09,-2.5100000000000002,50,5,188,3.7937257387929724,3.96048130645166
184209060,236.77,-1.41,1.48,1.1053600000000001,-1.6545,-1.95585,-0.052371999999999995,-0.0033269999999999997,0.882906,31.331502589000003,121.22386783600001,-3.09,-2.52,50,5,188,3.80124723474659,3.9656786790938545
184209080,236.81,-1.3900000000000001,1.45,1.3749500000000001,-1.58034,-1.93927,-0.001446,-0.0029029999999999998,0.9571759999999999,31.331502135,121.22386718400001,-3.09,-2.52,50,5,188,3.8004059308738842,3.9653882677619534
184209100,236.85,-1.37,1.44,0.66508,-0.7812000000000001,-1.84986,-0.029386,-0.02591,1.040869,31.331501682000003,121.22386653100001,-3.1,-2.52,50,5,188,3.805031102734217,3.9734683420863615
184209120,236.88,-1.37,1.43,0.22339,-0.34167000000000003,-1.58715,-0.005967999999999999,-0.016995,1.092344,31.331501229,121.22386587800001,-3.1,-2.5100000000000002,50,5,188,3.7960178553820096,3.967786734433655
184209140,236.91,-1.3800000000000001,1.42,-0.5739700000000001,-0.37494000000000005,-1.3924800000000002,-0.029408999999999998,-0.038217999999999995,1.081295,31.331500776000002,121.22386522400001,-3.1,-2.5100000000000002,50,5,188,3.7953759856683567,3.967572366994432
184209160,236.93,-1.42,1.43,-2.00206,0.25993,-1.2395,0.022255999999999998,-0.037312,1.068007,31.331500323,121.22386457,-3.1,-2.5100000000000002,50,5,188,3.79494749444624,3.967428851068828
184209180,236.95000000000002,-1.46,1.45,-1.53397,1.07626,-0.8720300000000001,-0.002303,-0.018424,1.018473,31.331499872000002,121.22386391600001,-3.1,-2.5,50,5,188,3.7861365912068434,3.961831144667288
184209200,236.96,-1.47,1.47,-0.6697900000000001,0.9460400000000001,-0.84355,-0.019909,-0.016218,0.9829359999999999,31.331499421,121.223863261,-3.11,-2.5,50,5,188,3.791373233333376,3.97014332806565
184209220,236.96,-1.47,1.47,0.14115,0.45358000000000004,-0.6253200000000001,0.006640999999999999,-0.010872,0.9687659999999999,31.331498852000003,121.22386265700001,-3.11,-2.5,50,5,188,3.791373233333376,3.97014332806565
184209240,236.97,-1.46,1.49,0.46053000000000005,0.8763200000000001,-0.5508700000000001,-0.030525,0.00032399999999999996,0.912766,31.331498325000002,121.22386202700001,-3.11,-2.5100000000000002,50,5,188,3.799539905717947,3.975524221784288
184209260,236.98000000000002,-1.46,1.52,0.18191000000000002,1.4807700000000001,-0.64136,-0.018694,-0.012438999999999999,0.908391,31.331497873000004,121.22386137000001,-3.12,-2.5100000000000002,50,5,188,3.8047728785545236,3.9838375543736753
184209280,236.99,-1.46,1.55,0.16771000000000003,1.3259100000000001,-0.5716600000000001,-0.042387,-0.020253999999999998,0.97978,31.331497421,121.22386071300001,-3.12,-2.5100000000000002,50,5,188,3.8045549546188964,3.983766912801798
184209300,237.0,-1.45,1.56,0.35248,0.7765700000000001,-0.54037,-0.012294,-0.012485,0.996154,31.331496968000003,121.223860055,-3.12,-2.5100000000000002,50,5,188,3.804336914789899,3.9836961498774413
184209320,237.01,-1.45,1.58,0.01247,0.8507800000000001,-0.38645,-0.050624999999999996,-0.024700999999999997,1.07419,31.331496516,121.22385939700001,-3.12,-2.5100000000000002,50,5,188,3.804118759074172,3.98362526560276
184209340,237.02,-1.45,1.6,-0.13160000000000002,0.70454,-0.51356,-0.046106,-0.016045999999999998,1.084409,31.331496063000003,121.22385873900001,-3.12,-2.52,50,5,188,3.812289093795708,3.988997722485761
184209360,237.03,-1.46,1.6,-0.47893,-0.00915,-0.52895,-0.046598999999999995,-0.018594,1.054214,31.331495609,121.223858081,-3.12,-2.52,50,5,188,3.812071656262126,3.9889251313460132
184209380,237.04,-1.45,1.59,0.5539200000000001,-0.45653000000000005,-0.6175700000000001,-0.054536999999999995,-0.030043,0.989772,31.331495154000002,121.223857424,-3.12,-2.52,50,5,188,3.811854102606202,3.9888524186966583
184209400,237.06,-1.44,1.58,0.44089000000000006,-0.44808000000000003,-0.74992,-0.028815,-0.030368,0.9446979999999999,31.331494699,121.223856767,-3.11,-2.52,50,5,188,3.8059810421260463,3.980314224351464
184209420,237.05,-1.43,1.56,0.76236,-0.65085,-0.6380600000000001,-0.06282499999999999,0.012336,0.965194,31.331494129000003,121.22385615700001,-3.11,-2.5300000000000002,50,5,188,3.8145888186963166,3.9858271986781544
184209440,237.07,-1.42,1.54,0.53803,-1.0959,-0.8266100000000001,-0.041304,-0.01388,0.975934,31.331493598,121.22385552700001,-3.11,-2.5500000000000003,50,5,188,3.8309446652959105,3.9965486182555354
184209460,237.08,-1.42,1.52,0.22083000000000003,-1.0732000000000002,-0.65871,-0.027606,-0.009831999999999999,1.0340909999999999,31.331493139000003,121.22385487000001,-3.12,-2.5500000000000003,50,5,188,3.836165633183699,4.004864378031754
184209480,237.09,-1.42,1.51,-0.2736,-0.65746,-0.6258900000000001,-0.037173,-0.033814,1.0464989999999998,31.33149268,121.22385421300001,-3.12,-2.5500000000000003,50,5,188,3.8359503442211373,4.004786662373055
184209500,237.11,-1.43,1.49,-0.27612000000000003,-0.6122000000000001,-0.65097,-0.014674999999999999,-0.037297,1.061099,31.331492221,121.22385355600001,-3.12,-2.5500000000000003,50,5,188,3.835519415753388,4.004630865079697
184209520,237.12,-1.43,1.49,-0.06253,-0.4913,-0.6201000000000001,-0.027951999999999998,-0.028564,1.026409,31.331491762000002,121.22385289900001,-3.11,-2.54,50,5,188,3.821476868748608,3.9907258759370645
184209540,237.13,-1.43,1.5,0.16442,0.7162900000000001,-0.6408100000000001,0.003972,-0.001488,0.9622219999999999,31.331491303000004,121.223852241,-3.12,-2.54,50,5,188,3.8266889783901803,3.999047232318409
184209560,237.14000000000001,-1.42,1.51,0.49692000000000003,0.45092000000000004,-0.36403,-0.004813,0.006755,0.936116,31.331490845,121.22385158300001,-3.13,-2.54,50,5,188,3.831898039645574,4.007370361383476
184209580,237.15,-1.4000000000000001,1.51,0.70289,0.16612000000000002,-0.35966000000000004,-0.01621,0.009484,0.927145,31.331490387000002,121.223850923,-3.13,-2.54,50,5,188,3.8316796366588743,4.00729432682801
184209600,237.15,-1.3800000000000001,1.52,1.15296,0.0297,-0.15543,0.011698,-0.008241,0.9046339999999999,31.331489928000003,121.22385026100001,-3.14,-2.54,50,5,188,3.8371040520255058,4.015695262366999
184209620,237.13,-1.36,1.52,1.2153200000000002,0.55195,-0.02545,-0.024933999999999998,-0.012827,0.9073549999999999,31.331489388,121.22384962800001,-3.14,-2.54,50,5,188,3.8375436734217914,4.01584531541651
184209640,237.13,-1.34,1.53,0.84338,0.14975000000000002,-0.10415,-0.028960999999999997,-0.023319,0.962977,31.331488817,121.22384899500001,-3.14,-2.5500000000000003,50,5,188,3.8459427149708416,4.021272662932316
184209660,237.14000000000001,-1.33,1.52,0.7406400000000001,-0.11041000000000001,-0.09633000000000001,-0.026577,-0.011476,1.004651,31.331488358,121.223848332,-3.14,-2.5500000000000003,50,5,188,3.8457239098413933,4.021196231579294
184209680,237.14000000000001,-1.33,1.53,0.0835,0.027420000000000003,-0.18202000000000002,-0.064132,-0.012639,1.086963,31.331487898000002,121.22384766900001,-3.14,-2.56,50,5,188,3.854123898513352,4.026622113103153
184209700,237.15,-1.33,1.53,0.14657,0.34178000000000003,-0.28529000000000004,-0.046106999999999995,-0.010661,1.1099459999999999,31.331487437000003,121.22384700600001,-3.14,-2.56,50,5,188,3.8539059231034845,4.026544093100262
184209720,237.15,-1.33,1.53,-0.006030000000000001,0.036980000000000006,-0.43149000000000004,-0.064453,-0.026854,1.051066,31.331486975,121.223846343,-3.14,-2.57,50,5,188,3.862306858642474,4.031968508466893
184209740,237.17000000000002,-1.31,1.53,0.91785,-0.23383,-0.72092,-0.043198,-0.028398999999999997,0.988841,31.331486512,121.22384568100001,-3.14,-2.57,50,5,188,3.861872448605629,4.031809167686726
184209760,237.18,-1.28,1.53,1.45957,0.04225,-0.7212900000000001,-0.027405,-0.022742,0.979889,31.331486049000002,121.22384502000001,-3.14,-2.57,50,5,188,3.861655067124854,4.0317293130715335
184209780,237.20000000000002,-1.25,1.53,1.67378,0.09049,-0.72435,-0.031763,-0.019726999999999998,1.0044389999999999,31.331485586000003,121.22384435800001,-3.14,-2.57,50,5,188,3.861219951271712,4.03156923540309
184209800,237.21,-1.23,1.52,1.07736,-0.54001,-0.6144900000000001,-0.033283,-0.0045049999999999995,0.9910359999999999,31.331485122000004,121.223843696,-3.14,-2.57,50,5,188,3.8610022169125973,4.031489012354717
184209820,237.21,-1.23,1.51,-0.26515,-0.48652000000000006,-0.61438,-0.017997,-0.014844999999999999,0.9818349999999999,31.331484552000003,121.22384308400001,-3.14,-2.58,50,5,188,3.8694088282787096,4.036904627309563
184209840,237.22,-1.24,1.5,-0.36709,-0.25612,-0.40284000000000003,-0.007447,-0.003916,0.958631,31.331484026000002,121.22384245,-3.14,-2.58,50,5,188,3.869191921381817,4.036822814142061
184209860,237.22,-1.22,1.5,0.9238100000000001,-0.10044,-0.3654,-0.016562999999999998,-0.008388999999999999,0.959691,31.331483562000003,121.22384178700001,-3.14,-2.58,50,5,188,3.869191921381817,4.036822814142061
184209880,237.23000000000002,-1.2,1.5,1.1588,-0.07743000000000001,-0.32242000000000004,-0.009675999999999999,-0.00737,1.0277319999999999,31.331483097000003,121.22384112300001,-3.15,-2.58,50,5,188,3.874387576786622,4.045149379266059
184209900,237.24,-1.18,1.52,0.8890100000000001,0.80522,-0.24706000000000003,-0.018972,0.00037799999999999997,1.064355,31.331482633,121.22384045800001,-3.15,-2.58,50,5,188,3.874168966528935,4.045068264726572
184209920,237.24,-1.18,1.54,0.038090000000000006,0.9611200000000001,-0.16608,0.002276,-0.028436999999999997,1.0497349999999999,31.331482168,121.223839792,-3.16,-2.57,50,5,188,3.8711707332272223,4.048066498028286
184209940,237.24,-1.18,1.54,-0.01007,0.23417000000000002,-0.00304,-0.049053,-0.036323,1.035451,31.331481705,121.223839126,-3.16,-2.57,50,5,188,3.8711707332272223,4.048066498028286
184209960,237.24,-1.17,1.55,0.48711000000000004,0.08170000000000001,-0.19865000000000002,-0.009762999999999999,-0.038513,0.9824529999999999,31.331481241000002,121.22383846100001,-3.15,-2.57,50,5,188,3.8657595207059536,4.039657052205303
184209980,237.24,-1.1500000000000001,1.56,1.2122700000000002,0.52459,0.03842,-0.029561999999999998,-0.023058,0.966024,31.331480778000003,121.22383779600001,-3.15,-2.57,50,5,188,3.8657595207059536,4.039657052205303
184210000,237.25,-1.1300000000000001,1.57,0.73611,0.63765,-0.12412000000000001,-0.061243,-0.014684,0.984648,31.331480315,121.22383713100001,-3.15,-2.57,50,5,188,3.8655398481276695,4.039577282253581
184210020,237.24,-1.1400000000000001,1.57,-0.25773,0.00687,-0.07439000000000001,-0.015621,-0.007292,1.0181909999999998,31.331479822000002,121.223836485,-3.15,-2.58,50,5,188,3.874168966528935,4.045068264726572
184210040,237.22,-1.1300000000000001,1.56,0.39686000000000005,-0.35387,0.21551,-0.056829,-0.005855,1.017325,31.331479258,121.223835863,-3.15,-2.58,50,5,188,3.874606069023714,4.045230370583249
184210060,237.22,-1.12,1.56,0.53932,-0.011800000000000001,0.0035900000000000003,-0.057863,-0.048367,0.978749,31.331478788000002,121.223835195,-3.15,-2.59,50,5,188,3.8830136254649004,4.050644518225145
184210080,237.22,-1.11,1.55,0.79103,-0.6069800000000001,0.14003000000000002,-0.035293,-0.015701,1.0037129999999999,31.331478321000002,121.22383453100001,-3.14,-2.59,50,5,188,3.8775994778230034,4.042236961783958
184210100,237.22,-1.11,1.54,0.04127,-0.8127700000000001,0.09914,-0.086773,-0.024013,0.985833,31.331477854000003,121.223833869,-3.14,-2.6,50,5,188,3.886007034264191,4.047651109425855
184210120,237.22,-1.1,1.53,0.4968,-0.48510000000000003,0.058190000000000006,-0.009691,0.001112,1.017124,31.331477386000003,121.22383320700001,-3.14,-2.6,50,5,188,3.886007034264191,4.047651109425855
184210140,237.21,-1.09,1.51,0.57564,-0.73923,0.48509,-0.07024899999999999,-0.00165,1.00586,31.331476917000003,121.223832544,-3.14,-2.6,50,5,188,3.8862220510109333,4.047735857219257
184210160,237.20000000000002,-1.08,1.5,0.14521,-0.60053,0.24675000000000002,-0.049067,-0.006620999999999999,0.9558089999999999,31.331476447000004,121.22383188200001,-3.14,-2.61,50,5,188,3.894842615411539,4.0532375638144
184210180,237.19,-1.09,1.5,-0.31987000000000004,-0.19476000000000002,0.51798,-0.020606,-0.019694,0.93823,31.331475977,121.223831219,-3.14,-2.61,50,5,188,3.8950564498023432,4.05332353198602
184210200,237.18,-1.1,1.51,-0.6562,0.34833000000000003,0.5492400000000001,-0.044003,-0.020177999999999998,0.958984,31.331475506,121.22383055700001,-3.14,-2.61,50,5,188,3.895270165542942,4.053409376686345
184210220,237.15,-1.11,1.51,-0.14484000000000002,0.24336000000000002,0.8552400000000001,0.001531,0.004151,1.040092,31.331474932000003,121.22382993500001,-3.14,-2.62,50,5,188,3.9043115363374206,4.059090585300049
184210240,237.13,-1.1,1.52,0.5393300000000001,0.19662000000000002,1.1593,-0.055525,-0.017977,1.075793,31.331474401,121.223829283,-3.14,-2.62,50,5,188,3.904736005814197,4.059264095542954
184210260,237.1,-1.1,1.54,-0.17805,1.11647,1.2315200000000002,0.016243,-0.009304999999999999,1.093221,31.331473929,121.22382862,-3.15,-2.62,50,5,188,3.910803562424775,4.067919632154158
184210280,237.07,-1.1,1.58,-0.35167000000000004,1.7968700000000002,1.5626200000000001,-0.044164999999999996,-0.034501,1.031277,31.331473457,121.22382795600001,-3.15,-2.62,50,5,188,3.911442699350572,4.068175011973075
184210300,237.04,-1.1,1.6,0.22718000000000002,1.27075,1.6188600000000002,-0.014945,-0.027767999999999998,1.008219,31.331472986,121.22382729200001,-3.15,-2.62,50,5,188,3.9120807639321677,4.068429276478738
184210320,237.0,-1.07,1.62,1.18513,0.7584700000000001,1.9717500000000001,-0.018772,-0.027957,0.983591,31.331472515,121.223826629,-3.15,-2.61,50,5,188,3.9045431426348918,4.063320170417306
184210340,236.96,-1.05,1.6400000000000001,1.18045,1.17341,2.0449800000000002,-0.049498999999999994,0.0017649999999999999,0.97959,31.331472044,121.223825965,-3.15,-2.62,50,5,188,3.9137770255820525,4.069101861988782
184210360,236.92000000000002,-1.05,1.67,0.14296,1.28491,2.0677700000000003,-0.028905999999999998,-0.005901,0.9790629999999999,31.331471572,121.22382530200001,-3.15,-2.62,50,5,188,3.9146222953223813,4.069435179979292
184210380,236.87,-1.05,1.69,-0.40509,0.9260200000000001,2.23754,-0.06519,-0.004517,0.960507,31.331471099,121.22382463800001,-3.15,-2.62,50,5,188,3.9156761994098908,4.069849038301697
184210400,236.83,-1.05,1.7,0.18033000000000002,0.39285000000000003,2.2799500000000004,-0.045764,-0.009134999999999999,0.9211659999999999,31.331470626,121.22382397400001,-3.15,-2.63,50,5,188,3.92488768473053,4.0756491436272055
184210420,236.78,-1.03,1.71,1.07138,0.25098000000000004,2.21151,-0.097471,-0.028083999999999998,0.9516629999999999,31.331470064,121.223823342,-3.14,-2.64,50,5,188,3.928818621473453,4.073177546917538
184210440,236.74,-1.01,1.71,0.8466800000000001,-0.07648,1.9070500000000001,-0.055885,-0.008976999999999999,0.9997269999999999,31.331469553,121.22382267900001,-3.14,-2.65,50,5,188,3.938003714108646,4.079001835062318
184210460,236.70000000000002,-1.01,1.71,-0.25104000000000004,0.16887000000000002,1.8426900000000002,-0.10110999999999999,-0.028494,1.032535,31.331469075,121.223822018,-3.13,-2.66,50,5,188,3.941689001573752,4.076477736957717
184210480,236.67000000000002,-1.02,1.71,-0.29831,0.13878000000000001,1.65196,-0.05594,-0.008038,1.042447,31.331468595,121.22382135900001,-3.13,-2.66,50,5,188,3.9422935719472436,4.076741494038658
184210500,236.63,-1.03,1.7,-0.5646500000000001,-0.65505,1.9345800000000002,-0.048794,-0.026005,0.977517,31.331468115000003,121.223820699,-3.13,-2.67,50,5,188,3.9514493443007117,4.082591866942373
184210520,236.59,-1.03,1.67,-0.26226000000000005,-1.6144100000000001,1.7898100000000001,-0.09756899999999999,-0.023968999999999997,1.008845,31.331467634000003,121.22382004100001,-3.12,-2.68,50,5,188,3.9550892463083667,4.080104393002156
184210540,236.56,-1.04,1.6500000000000001,-0.12055,-1.0461900000000002,1.8027900000000001,-0.014735,-0.027489999999999997,1.010178,31.331467151000002,121.22381938400001,-3.11,-2.68,50,5,188,3.950169080106203,4.0720310423283
184210560,236.52,-1.06,1.6400000000000001,-1.01451,-0.74916,2.0044600000000004,-0.081082,-0.026705999999999997,1.0638589999999999,31.331466669,121.22381872700001,-3.11,-2.68,50,5,188,3.950948859737717,4.072394861821155
184210580,236.47,-1.07,1.62,-0.72853,-1.01315,2.11587,-0.007519,-0.01095,1.046297,31.331466186000004,121.22381807100001,-3.11,-2.68,50,5,188,3.951920876295115,4.072846844991216
184210600,236.42000000000002,-1.09,1.59,-0.9306800000000001,-1.4336300000000002,2.4239100000000002,-0.050807,-0.035432,1.047327,31.331465703000003,121.22381741500001,-3.11,-2.68,50,5,188,3.952889883292853,4.073295726511231
184210620,236.36,-1.08,1.58,0.30860000000000004,-0.35204,2.519,-0.03845,-0.023586,1.032522,31.331465151000003,121.223816794,-3.1,-2.69,50,5,188,3.9568343359777245,4.071044671730841
184210640,236.31,-1.07,1.59,0.19127000000000002,0.37022000000000005,2.64523,-0.021089999999999998,-0.041762,0.991433,31.331464575000002,121.223816189,-3.1,-2.69,50,5,188,3.9577846187293684,4.07149882904131
184210660,236.25,-1.06,1.6,0.45326000000000005,0.3793,2.7436100000000003,-0.068801,-0.003957,0.981912,31.331464091,121.22381553500001,-3.1,-2.69,50,5,188,3.9589209794546143,4.072039724960621
184210680,236.20000000000002,-1.05,1.6,0.64617,0.03755,2.79423,-0.017918,-0.020298999999999998,0.9634849999999999,31.331463606000003,121.22381488200001,-3.1,-2.69,50,5,188,3.9598646303988883,4.072487060446238
184210700,236.14000000000001,-1.03,1.61,0.7518900000000001,0.31746,3.0494700000000003,-0.066118,-0.011656,0.9426509999999999,31.331463121000002,121.22381422800001,-3.1,-2.7,50,5,188,3.969297045488192,4.078591424334968
184210720,236.08,-1.02,1.6300000000000001,0.36779,0.63188,2.8911300000000004,-0.05561,-0.016718,0.9275479999999999,31.331462634,121.22381357500001,-3.09,-2.7,50,5,188,3.964834915024481,4.070830183945505
184210740,236.02,-1.03,1.6500000000000001,-0.44408000000000003,1.09616,2.78608,-0.055027,-0.022205,0.923415,31.331462147000003,121.22381292300001,-3.09,-2.71,50,5,188,3.974232418957243,4.076957528822015
184210760,235.96,-1.04,1.68,-0.41405000000000003,1.17916,2.9868200000000003,-0.049507999999999996,-0.021186,0.9625199999999999,31.331461659000002,121.22381227100001,-3.09,-2.71,50,5,188,3.9753273892092604,4.077500054775332
184210780,235.9,-1.04,1.68,0.038220000000000004,0.10091000000000001,3.1644500000000004,-0.09081099999999999,-0.019429,1.002451,31.33146117,121.22381162,-3.08,-2.72,50,5,188,3.97909221342797,4.075363895849301
184210800,235.84,-1.03,1.69,0.23264,0.32893,2.9623800000000005,-0.065109,-0.01847,1.022975,31.331460680000003,121.223810971,-3.08,-2.72,50,5,188,3.980163919727184,4.075912022144074
184210820,235.77,-1.03,1.69,-0.1038,0.1421,3.13695,-0.077225,-0.028692,1.002346,31.331460113000002,121.22381035100001,-3.0700000000000003,-2.73,50,5,188,3.984051425072993,4.073903155572228
184210840,235.71,-1.03,1.7,-0.11204000000000001,0.32369000000000003,2.8017800000000004,-0.09665499999999999,-0.027365999999999998,1.027947,31.331459595000002,121.223809707,-3.06,-2.74,50,5,188,3.9877272705407325,4.071827999103723
184210860,235.66,-1.03,1.7,0.09459000000000001,-0.12510000000000002,2.94131,-0.046943,-0.039681999999999995,1.008375,31.331459101000004,121.22380906100001,-3.06,-2.75,50,5,188,3.9968419331162344,4.077938565777684
184210880,235.59,-1.02,1.69,0.43294000000000005,-0.7766000000000001,3.1018600000000003,-0.08854,-0.029299,1.031954,31.331458606,121.223808417,-3.0500000000000003,-2.75,50,5,188,3.992379484101404,4.070350646924236
184210900,235.53,-1.02,1.68,-0.28557000000000005,-0.48613000000000006,3.08232,-0.051406999999999994,-0.028536,1.049081,31.331458110000003,121.22380777500001,-3.04,-2.7600000000000002,50,5,188,3.9959694303253475,4.068334869600615
184210920,235.47,-1.03,1.6600000000000001,-0.49696000000000007,-0.8811500000000001,3.3470000000000004,-0.054967999999999996,-0.007904,1.0666309999999999,31.331457613,121.22380713300001,-3.04,-2.7600000000000002,50,5,188,3.9969559557180996,4.068913669609747
184210940,235.4,-1.04,1.6400000000000001,-0.7192500000000001,-1.24279,3.4472400000000003,-0.052461,-0.034447,1.041825,31.331457116000003,121.223806491,-3.04,-2.7600000000000002,50,5,188,3.998101362116488,4.069583296691263
184210960,235.32,-1.04,1.62,0.23005000000000003,-1.13242,3.7765600000000004,-0.058164,-0.026064,1.011298,31.331456618,121.22380585,-3.04,-2.77,50,5,188,4.00762651762386,4.076031071795158
184210980,235.25,-1.03,1.61,0.14109000000000002,-0.43723000000000006,3.7070900000000004,-0.069779,-0.039288,1.01562,31.331456119000002,121.22380521100001,-3.0300000000000002,-2.77,50,5,188,4.003052208766592,4.068481254356516
184211000,235.17000000000002,-1.03,1.62,0.08117,0.041580000000000006,3.8568300000000004,-0.050018,-0.025633,1.012823,31.331455620000003,121.223804572,-3.02,-2.77,50,5,188,3.9986084478025985,4.061035155179512
184211020,235.08,-1.02,1.6300000000000001,0.24211000000000002,0.48410000000000003,3.9463100000000004,-0.075948,-0.019763,0.972764,31.331455098000003,121.22380395,-3.02,-2.7800000000000002,50,5,188,4.008211883220422,4.0676166793158295
184211040,234.99,-1.01,1.6400000000000001,0.37346,0.7485900000000001,4.089650000000001,-0.015437999999999999,-0.020218,0.933468,31.331454515,121.22380336200001,-3.02,-2.7800000000000002,50,5,188,4.00959692605726,4.068476732590808
184211060,234.9,-1.0,1.6500000000000001,0.7159000000000001,0.5386500000000001,4.573320000000001,-0.058842,-0.018317999999999997,0.906377,31.331454008,121.223802727,-3.0100000000000002,-2.7800000000000002,50,5,188,4.005222023091834,4.061145250129636
184211080,234.81,-0.99,1.67,0.32881000000000005,0.5004000000000001,4.41702,-0.073694,-0.018321,0.903949,31.331453505000002,121.22380209200001,-3.0100000000000002,-2.79,50,5,188,4.01474688652845,4.067757163321678
184211100,234.72,-0.99,1.68,-0.46950000000000003,0.5888800000000001,4.39309,-0.042945,-0.017547,0.968534,31.331453002000003,121.22380145800001,-3.0100000000000002,-2.8000000000000003,50,5,188,4.024243739309141,4.074384714241074
184211120,234.63,-1.01,1.7,-1.03252,0.9824800000000001,4.46924,-0.084604,-0.014017,0.9954959999999999,31.331452497,121.22380082400001,-3.0,-2.8000000000000003,50,5,188,4.019769664814974,4.067085005185281
184211140,234.54,-1.03,1.71,-1.06403,0.28279000000000004,4.4207,-0.07826,-0.037006,1.0148409999999999,31.331451992,121.22380019200001,-2.99,-2.81,50,5,188,4.023405261699761,4.06559479078192
184211160,234.45000000000002,-1.04,1.7,-0.74143,-0.5536500000000001,4.49528,-0.090679,-0.024531999999999998,1.005465,31.331451485000002,121.223799561,-2.99,-2.82,50,5,188,4.0328012487085125,4.072274443789275
184211180,234.37,-1.06,1.71,-0.8593700000000001,0.048690000000000004,4.28859,-0.10342499999999999,-0.018385,0.9893639999999999,31.331450976000003,121.22379893200001,-2.98,-2.83,50,5,188,4.036207171697198,4.070744254970775
